[
    {
        "name": "Bardo Brewpub",
        "breweryType": "micro",
        "street": "25 Potomac Ave SE",
        "city": "Washington",
        "state": "District of Columbia",
        "postalCode": "20003-3670",
        "country": "United States",
        "longitude": "-77.0065830204082",
        "latitude": "38.8716537346939",
        "phone": "7622337070",
        "websiteUrl": "http://www.bardo.beer"
    },
    {
        "name": "3 Stars Brewing Co",
        "breweryType": "micro",
        "street": "6400 Chillum Pl NW Ste B",
        "city": "Washington",
        "state": "District of Columbia",
        "postalCode": "20012-2111",
        "country": "United States",
        "longitude": null,
        "latitude": null,
        "phone": "2026700333",
        "websiteUrl": "http://www.3starsbrewing.com"
    },
    {
        "name": "Brewery in Planning - Washington",
        "breweryType": "planning",
        "street": "",
        "city": "Washington",
        "state": "District of Columbia",
        "postalCode": "20009-2408",
        "country": "United States",
        "longitude": null,
        "latitude": null,
        "phone": "",
        "websiteUrl": ""
    },
    {
        "name": "City-State Brewing Company",
        "breweryType": "planning",
        "street": "",
        "city": "Washington",
        "state": "District of Columbia",
        "postalCode": "20017-2518",
        "country": "United States",
        "longitude": null,
        "latitude": null,
        "phone": "2025310481",
        "websiteUrl": "http://citystatebrewing.com"
    },
    {
        "name": "DC Brau Brewing Company",
        "breweryType": "regional",
        "street": "3178 Bladensburg Rd NE Ste B",
        "city": "Washington",
        "state": "District of Columbia",
        "postalCode": "20018-2214",
        "country": "United States",
        "longitude": null,
        "latitude": null,
        "phone": "2026218890",
        "websiteUrl": "http://www.dcbrau.com"
    },
    {
        "name": "Red Bear Brewing Co",
        "breweryType": "planning",
        "street": "",
        "city": "Washington",
        "state": "District of Columbia",
        "postalCode": "20002-3406",
        "country": "United States",
        "longitude": null,
        "latitude": null,
        "phone": "2062997485",
        "websiteUrl": "http://www.redbear.beer"
    },
    {
        "name": "AdMerk Corp. Inc.",
        "breweryType": "contract",
        "street": "20 F St NW",
        "city": "Washington",
        "state": "District of Columbia",
        "postalCode": "20001-6700",
        "country": "United States",
        "longitude": "-77.0094205",
        "latitude": "38.89742205",
        "phone": "6172028069",
        "websiteUrl": "http://www.paugustin.com"
    },
    {
        "name": "Bluejacket",
        "breweryType": "brewpub",
        "street": "300 Tingey St SE",
        "city": "Washington",
        "state": "District of Columbia",
        "postalCode": "20003-4625",
        "country": "United States",
        "longitude": "-77.0006981",
        "latitude": "38.8750965",
        "phone": "",
        "websiteUrl": "http://www.bluejacketdc.com"
    },
    {
        "name": "District ChopHouse and Brewery",
        "breweryType": "brewpub",
        "street": "509 7th St NW",
        "city": "Washington",
        "state": "District of Columbia",
        "postalCode": "20004-1600",
        "country": "United States",
        "longitude": "-77.0216694",
        "latitude": "38.8965132",
        "phone": "2023473434",
        "websiteUrl": "http://www.districtchophouse.com"
    },
    {
        "name": "Gordon Biersch Brewery Restaurant - Washington",
        "breweryType": "brewpub",
        "street": "900 F St NW",
        "city": "Washington",
        "state": "District of Columbia",
        "postalCode": "20004-1404",
        "country": "United States",
        "longitude": "-77.0243479",
        "latitude": "38.8971375",
        "phone": "2027835454",
        "websiteUrl": "http://www.gordonbiersch.com/locations/washington-dc?action=view"
    },
    {
        "name": "Hellbender Brewing Company",
        "breweryType": "micro",
        "street": "5788 2nd St NE",
        "city": "Washington",
        "state": "District of Columbia",
        "postalCode": "20011-2524",
        "country": "United States",
        "longitude": "-77.0053314",
        "latitude": "38.9603005",
        "phone": "2022301030",
        "websiteUrl": "http://www.hellbenderbeer.com"
    },
    {
        "name": "Right Proper Brewing Company",
        "breweryType": "micro",
        "street": "920 Girard St NE",
        "city": "Washington",
        "state": "District of Columbia",
        "postalCode": "20017-3424",
        "country": "United States",
        "longitude": "-76.9930707764239",
        "latitude": "38.9267988",
        "phone": "2026072337",
        "websiteUrl": "http://www.rightproperbrewing.com"
    },
    {
        "name": "Right Proper Brewing Company",
        "breweryType": "brewpub",
        "street": "624 T St NW",
        "city": "Washington",
        "state": "District of Columbia",
        "postalCode": "20001-5119",
        "country": "United States",
        "longitude": "-77.0213751",
        "latitude": "38.9154119",
        "phone": "2026072337",
        "websiteUrl": "http://www.rightproperbrewery.com"
    },
    {
        "name": "The Public Option",
        "breweryType": "brewpub",
        "street": "1601 Rhode Island Ave NE",
        "city": "Washington",
        "state": "District of Columbia",
        "postalCode": "20018-1841",
        "country": "United States",
        "longitude": "-76.9817377",
        "latitude": "38.926148",
        "phone": "2023975129",
        "websiteUrl": "http://www.thepublicoptiondc.com"
    },
    {
        "name": "Atlas Brew Works",
        "breweryType": "micro",
        "street": "2052 W Virginia Ave NE Ste 102",
        "city": "Washington",
        "state": "District of Columbia",
        "postalCode": "20002-1832",
        "country": "United States",
        "longitude": null,
        "latitude": null,
        "phone": "2028320420",
        "websiteUrl": "http://www.atlasbrewworks.com"
    },
    {
        "name": "Capitol City Brewing Co",
        "breweryType": "contract",
        "street": "2 Massachusetts Ave NE",
        "city": "Washington",
        "state": "District of Columbia",
        "postalCode": "20002-4945",
        "country": "United States",
        "longitude": "-77.0082686",
        "latitude": "38.8979293",
        "phone": "2028422337",
        "websiteUrl": "http://www.capcitybrew.com"
    },
    {
        "name": "Gordon Biersch Brewery Restaurant - Navy  Yard",
        "breweryType": "brewpub",
        "street": "100 M St SE",
        "city": "Washington",
        "state": "District of Columbia",
        "postalCode": "20003-3519",
        "country": "United States",
        "longitude": "-77.0052971",
        "latitude": "38.8766834",
        "phone": "2024842739",
        "websiteUrl": "http://www.gordonbiersch.com/locations/navy-yard?action=view"
    },
    {
        "name": "Barley and Hops Grill",
        "breweryType": "brewpub",
        "street": "5473 Urbana Pike",
        "city": "Frederick",
        "state": "Maryland",
        "postalCode": "21704-7275",
        "country": "United States",
        "longitude": "-77.3995969",
        "latitude": "39.38204685",
        "phone": "3016685555",
        "websiteUrl": "http://www.barleyandhops.net"
    },
    {
        "name": "Brewer's Alley Restaurant and Brewery",
        "breweryType": "brewpub",
        "street": "124 N Market St",
        "city": "Frederick",
        "state": "Maryland",
        "postalCode": "21701-5422",
        "country": "United States",
        "longitude": "-77.4104551496397",
        "latitude": "39.41607325",
        "phone": "3016310089",
        "websiteUrl": "http://www.brewers-alley.com"
    },
    {
        "name": "Evolution Craft Brewing Co",
        "breweryType": "regional",
        "street": "200 Elmwood St",
        "city": "Salisbury",
        "state": "Maryland",
        "postalCode": "21804-5522",
        "country": "United States",
        "longitude": "-75.595254",
        "latitude": "38.361979",
        "phone": "4432602337",
        "websiteUrl": "http://www.evolutioncraftbrewing.com"
    },
    {
        "name": "Flying Dog Brewery",
        "breweryType": "regional",
        "street": "4607 Wedgewood Blvd",
        "city": "Frederick",
        "state": "Maryland",
        "postalCode": "21703-7120",
        "country": "United States",
        "longitude": "-77.4267910677553",
        "latitude": "39.3628322",
        "phone": "3016947899",
        "websiteUrl": "http://www.flyingdogbrewery.com"
    },
    {
        "name": "Franklins General Store",
        "breweryType": "micro",
        "street": "5123 Baltimore Ave",
        "city": "Hyattsville",
        "state": "Maryland",
        "postalCode": "20781-2042",
        "country": "United States",
        "longitude": "-76.9407411387391",
        "latitude": "38.9519439895478",
        "phone": "3019272740",
        "websiteUrl": "http://Franklinsbrewery.com"
    },
    {
        "name": "Greene Growlers",
        "breweryType": "brewpub",
        "street": "227 E Diamond Ave",
        "city": "Gaithersburg",
        "state": "Maryland",
        "postalCode": "20877",
        "country": "United States",
        "longitude": "-77.1935558364428",
        "latitude": "39.1419364",
        "phone": "2402616196",
        "websiteUrl": "http://www.greenegrowlers.com"
    },
    {
        "name": "Pub Dog Brewing Company",
        "breweryType": "micro",
        "street": "1203 New Windsor Rd",
        "city": "Westminster",
        "state": "Maryland",
        "postalCode": "21158-6704",
        "country": "United States",
        "longitude": "-77.0522979602972",
        "latitude": "39.5504519724238",
        "phone": "4108483993",
        "websiteUrl": "http://www.pubdog.com"
    },
    {
        "name": "Saints Row Brewing",
        "breweryType": "micro",
        "street": "1211 Taft St",
        "city": "Rockville",
        "state": "Maryland",
        "postalCode": "20850-1344",
        "country": "United States",
        "longitude": "-77.1340180802385",
        "latitude": "39.0936171503817",
        "phone": "",
        "websiteUrl": "http://www.saintsrowbeer.com"
    },
    {
        "name": "The Brewer's Art / Old Line Brewery LLC",
        "breweryType": "brewpub",
        "street": "1106 N Charles St",
        "city": "Baltimore",
        "state": "Maryland",
        "postalCode": "21201-5557",
        "country": "United States",
        "longitude": "-76.6146068",
        "latitude": "39.303716",
        "phone": "",
        "websiteUrl": "http://www.thebrewersart.com"
    },
    {
        "name": "Grail Point Brewery",
        "breweryType": "proprietor",
        "street": "",
        "city": "Emmitsburg",
        "state": "Maryland",
        "postalCode": "21727-0702",
        "country": "United States",
        "longitude": null,
        "latitude": null,
        "phone": "2408442379",
        "websiteUrl": "http://www.grailpointbeer.co"
    },
    {
        "name": "1623 Brewing CO, llc",
        "breweryType": "contract",
        "street": "1146 colonel Joshua Ct",
        "city": "Westminister",
        "state": "Maryland",
        "postalCode": "21157",
        "country": "United States",
        "longitude": null,
        "latitude": null,
        "phone": "",
        "websiteUrl": ""
    },
    {
        "name": "7 Locks Brewing",
        "breweryType": "micro",
        "street": "12227 Wilkins Ave",
        "city": "Rockville",
        "state": "Maryland",
        "postalCode": "20852-1833",
        "country": "United States",
        "longitude": null,
        "latitude": null,
        "phone": "3018417123",
        "websiteUrl": "http://www.7locksbrewing.com"
    },
    {
        "name": "Astro Lab Brewing",
        "breweryType": "planning",
        "street": "",
        "city": "Silver Spring",
        "state": "Maryland",
        "postalCode": "20910-4519",
        "country": "United States",
        "longitude": null,
        "latitude": null,
        "phone": "3106910475",
        "websiteUrl": "http://www.astrolabbrewing.com"
    },
    {
        "name": "Attaboy Beer",
        "breweryType": "micro",
        "street": "400 Sagner Ave Ste 400",
        "city": "Frederick",
        "state": "Maryland",
        "postalCode": "21701-6083",
        "country": "United States",
        "longitude": null,
        "latitude": null,
        "phone": "4157106459",
        "websiteUrl": ""
    },
    {
        "name": "B.C. Brewery",
        "breweryType": "micro",
        "street": "10950 Gilroy Rd Ste F",
        "city": "Hunt Valley",
        "state": "Maryland",
        "postalCode": "21031-1327",
        "country": "United States",
        "longitude": null,
        "latitude": null,
        "phone": "4433913847",
        "websiteUrl": "http://www.bcbrewerymd.com"
    },
    {
        "name": "Back Creek Brewing Company",
        "breweryType": "planning",
        "street": "",
        "city": "Annapolis",
        "state": "Maryland",
        "postalCode": "21401-4019",
        "country": "United States",
        "longitude": null,
        "latitude": null,
        "phone": "4103206904",
        "websiteUrl": "http://www.backcreekbrewing.com"
    },
    {
        "name": "Backshore Brewing Co.",
        "breweryType": "brewpub",
        "street": "913 Atlantic Ave",
        "city": "Ocean City",
        "state": "Maryland",
        "postalCode": "21842-6689",
        "country": "United States",
        "longitude": null,
        "latitude": null,
        "phone": "4102890008",
        "websiteUrl": "http://www.BackshoreBrew.com"
    },
    {
        "name": "Baltimore Washington Beer Works",
        "breweryType": "contract",
        "street": "2500 Grays Rd",
        "city": "Dundalk",
        "state": "Maryland",
        "postalCode": "21222",
        "country": "United States",
        "longitude": null,
        "latitude": null,
        "phone": "4438476223",
        "websiteUrl": "http://www.ravenbeer.com"
    },
    {
        "name": "Big Truck Brewery",
        "breweryType": "planning",
        "street": "",
        "city": "Parkton",
        "state": "Maryland",
        "postalCode": "21120-9004",
        "country": "United States",
        "longitude": null,
        "latitude": null,
        "phone": "4436775451",
        "websiteUrl": "http://www.bigtruckfarms.com"
    },
    {
        "name": "Bird Nickel Brewing Company",
        "breweryType": "planning",
        "street": "",
        "city": "Easton",
        "state": "Maryland",
        "postalCode": "21601-3904",
        "country": "United States",
        "longitude": null,
        "latitude": null,
        "phone": "4103106042",
        "websiteUrl": ""
    },
    {
        "name": "Back Bay Brewing Company",
        "breweryType": "micro",
        "street": "614 Norfolk Ave",
        "city": "Virginia Beach",
        "state": "Virginia",
        "postalCode": "23451-4419",
        "country": "United States",
        "longitude": "-75.9797441428571",
        "latitude": "36.8377837142857",
        "phone": "7575317750",
        "websiteUrl": "http://www.backbaybrewingco.com"
    },
    {
        "name": "Belly Love Brewing Company",
        "breweryType": "brewpub",
        "street": "725 E Main St",
        "city": "Purcellville",
        "state": "Virginia",
        "postalCode": "20132-3178",
        "country": "United States",
        "longitude": "-77.7015903",
        "latitude": "39.1364247",
        "phone": "5404413159",
        "websiteUrl": "http://www.bellylovebrewing.com"
    },
    {
        "name": "Billsburg Brewery",
        "breweryType": "micro",
        "street": "2054 Jamestown Rd",
        "city": "Williamsburg",
        "state": "Virginia",
        "postalCode": "23185-7911",
        "country": "United States",
        "longitude": "-76.7129558",
        "latitude": "37.2682365",
        "phone": "",
        "websiteUrl": "http://www.billsburg.com"
    },
    {
        "name": "Bull Island Brewing Company",
        "breweryType": "brewpub",
        "street": "758 Settlers Landing Rd",
        "city": "Hampton",
        "state": "Virginia",
        "postalCode": "23669-4035",
        "country": "United States",
        "longitude": "-76.3420654545455",
        "latitude": "37.0248734545455",
        "phone": "7577889489",
        "websiteUrl": "http://www.bullislandbrewing.com"
    },
    {
        "name": "Eavesdrop Brewery",
        "breweryType": "micro",
        "street": "7223 Centreville Rd Ste 115",
        "city": "Manassas",
        "state": "Virginia",
        "postalCode": "20111",
        "country": "United States",
        "longitude": "-77.469",
        "latitude": "38.752531",
        "phone": "7034208955",
        "websiteUrl": "http://www.eavesdropbrewery.com"
    },
    {
        "name": "Gordon Biersch Brewery Restaurant - Virginia Beach",
        "breweryType": "brewpub",
        "street": "4561 Virginia Beach Blvd",
        "city": "Virginia Beach",
        "state": "Virginia",
        "postalCode": "23462-3015",
        "country": "United States",
        "longitude": "-76.1345641",
        "latitude": "36.8432205",
        "phone": "7574902739",
        "websiteUrl": "http://www.craftworksrestaurants.com"
    },
    {
        "name": "Legend Brewing Co",
        "breweryType": "brewpub",
        "street": "1 High St",
        "city": "Portsmouth",
        "state": "Virginia",
        "postalCode": "23704-3814",
        "country": "United States",
        "longitude": "-76.2966634213108",
        "latitude": "36.83482035",
        "phone": "8042328871",
        "websiteUrl": ""
    },
    {
        "name": "Loudoun Brewing Co",
        "breweryType": "micro",
        "street": "310 E Market St",
        "city": "Leesburg",
        "state": "Virginia",
        "postalCode": "20176-4101",
        "country": "United States",
        "longitude": "-77.532576",
        "latitude": "39.09743",
        "phone": "5712236097",
        "websiteUrl": "http://www.loudounbrewing.com"
    },
    {
        "name": "Ono Brewing Company",
        "breweryType": "micro",
        "street": "4520 Daly Dr Ste 102",
        "city": "Chantilly",
        "state": "Virginia",
        "postalCode": "20151-3735",
        "country": "United States",
        "longitude": "-77.4437006339208",
        "latitude": "38.8832787522685",
        "phone": "5714096662",
        "websiteUrl": "http://www.onobrewco.com"
    },
    {
        "name": "Reason Beer",
        "breweryType": "micro",
        "street": "1180 Seminole Trl Ste 290",
        "city": "Charlottesville",
        "state": "Virginia",
        "postalCode": "22901-5713",
        "country": "United States",
        "longitude": "-78.486033001597",
        "latitude": "38.0679283078808",
        "phone": "4342494572",
        "websiteUrl": "http://www.reasonbeer.com"
    },
    {
        "name": "Restless Moons Brewing",
        "breweryType": "micro",
        "street": "120 W Wolfe St",
        "city": "Harrisonburg",
        "state": "Virginia",
        "postalCode": "22802-3815",
        "country": "United States",
        "longitude": "-78.870847259293",
        "latitude": "38.4518952234726",
        "phone": "5402172726",
        "websiteUrl": "http://www.restlessmoons.com"
    },
    {
        "name": "Studio Brew",
        "breweryType": "brewpub",
        "street": "221 Moore St",
        "city": "Bristol",
        "state": "Virginia",
        "postalCode": "24201-4302",
        "country": "United States",
        "longitude": "-82.1823137347038",
        "latitude": "36.5986280768857",
        "phone": "4233603258",
        "websiteUrl": "http://www.studiobrew.beer"
    },
    {
        "name": "Three Notch'd Sour House",
        "breweryType": "micro",
        "street": "520 2nd St SE",
        "city": "Charlottesville",
        "state": "Virginia",
        "postalCode": "22902-5794",
        "country": "United States",
        "longitude": "-78.4820248",
        "latitude": "38.0261159",
        "phone": "4349563141",
        "websiteUrl": "http://threenotchdbrewing.com/"
    },
    {
        "name": "Triple Crossing Brewing Company",
        "breweryType": "micro",
        "street": "113 S. Foushee St.",
        "city": "Richmond",
        "state": "Virginia",
        "postalCode": "23220-5616",
        "country": "United States",
        "longitude": "-77.4455177",
        "latitude": "37.5415927",
        "phone": "8043991780",
        "websiteUrl": "http://www.triplecrossingbeer.com"
    },
    {
        "name": "Wasserhund Brewing Company",
        "breweryType": "brewpub",
        "street": "1805 Laskin Rd Ste 102",
        "city": "Virginia Beach",
        "state": "Virginia",
        "postalCode": "23454-4553",
        "country": "United States",
        "longitude": "-76.0276214674499",
        "latitude": "36.849165",
        "phone": "7573511326",
        "websiteUrl": "http://www.wasserhundbrewing.com"
    },
    {
        "name": "Beale's",
        "breweryType": "brewpub",
        "street": "510 Grove St",
        "city": "Bedford",
        "state": "Virginia",
        "postalCode": "24523",
        "country": "United States",
        "longitude": "-79.51785",
        "latitude": "37.33585",
        "phone": "",
        "websiteUrl": "http://www.bealesbeer.com"
    },
    {
        "name": "Dragon Run Brewing",
        "breweryType": "planning",
        "street": "",
        "city": "Manquin",
        "state": "Virginia",
        "postalCode": "23106",
        "country": "United States",
        "longitude": null,
        "latitude": null,
        "phone": "8043800730",
        "websiteUrl": "http://www.dragonrunbrewing.com"
    },
    {
        "name": "Jack's Run Brewing Co",
        "breweryType": "micro",
        "street": "108 North 21st Street",
        "city": "Purcellville",
        "state": "Virginia",
        "postalCode": "20132",
        "country": "United States",
        "longitude": "-77.7149118539252",
        "latitude": "39.13704895",
        "phone": "5404413382",
        "websiteUrl": "http://www.jacksrunbrewing.com"
    },
    {
        "name": "Quattro Goombas Brewery",
        "breweryType": "brewpub",
        "street": "22860 James Monroe Hwy",
        "city": "Aldie",
        "state": "Virginia",
        "postalCode": "20105-1916",
        "country": "United States",
        "longitude": null,
        "latitude": null,
        "phone": "7035091332",
        "websiteUrl": "http://www.goombabrewery.com"
    },
    {
        "name": "Three Notch'd Brewing Company",
        "breweryType": "micro",
        "street": "520 2nd St SE",
        "city": "Charlottesville",
        "state": "Virginia",
        "postalCode": "22902-5794",
        "country": "United States",
        "longitude": "-78.4820248",
        "latitude": "38.0261159",
        "phone": "",
        "websiteUrl": ""
    }
]